{
    "http://150.136.247.129:1080": {
        "status": "success",
        "country": "United States",
        "countryCode": "US",
        "region": "VA",
        "regionName": "Virginia",
        "city": "Ashburn",
        "zip": "20147",
        "lat": 39.018,
        "lon": -77.539,
        "timezone": "America/New_York",
        "isp": "Oracle Corporation",
        "org": "Oracle Cloud Infrastructure (us-ashburn-1)",
        "as": "AS31898 Oracle Corporation",
        "query": "150.136.247.129",
        "response_time": 0.058646440505981445
    },
    "http://47.90.205.231:33333": {
        "status": "success",
        "country": "United States",
        "countryCode": "US",
        "region": "VA",
        "regionName": "Virginia",
        "city": "Richmond",
        "zip": "23173",
        "lat": 37.4316,
        "lon": -78.6569,
        "timezone": "America/New_York",
        "isp": "Alibaba.com LLC",
        "org": "ALICLOUD-US",
        "as": "AS45102 Alibaba (US) Technology Co., Ltd.",
        "query": "47.90.205.231",
        "response_time": 0.01680469512939453
    },
    "http://158.69.122.49:3129": {
        "slideshow": {
            "author": "Yours Truly",
            "date": "date of publication",
            "slides": [
                {
                    "title": "Wake up to WonderWidgets!",
                    "type": "all"
                },
                {
                    "items": [
                        "Why <em>WonderWidgets</em> are great",
                        "Who <em>buys</em> WonderWidgets"
                    ],
                    "title": "Overview",
                    "type": "all"
                }
            ],
            "title": "Sample Slide Show"
        },
        "response_time": 0.06224775314331055
    },
    "http://98.8.195.160:443": {
        "status": "success",
        "country": "United States",
        "countryCode": "US",
        "region": "GA",
        "regionName": "Georgia",
        "city": "Atlanta",
        "zip": "30339",
        "lat": 33.8743,
        "lon": -84.4653,
        "timezone": "America/New_York",
        "isp": "Spectrum",
        "org": "Road Runner",
        "as": "AS19115 Charter Communications",
        "query": "98.8.35.1",
        "response_time": 0.12913775444030762
    },
    "http://65.108.203.36:18080": {
        "status": "success",
        "country": "Sweden",
        "countryCode": "SE",
        "region": "E",
        "regionName": "\u00d6sterg\u00f6tland",
        "city": "Link\u00f6ping",
        "zip": "582 22",
        "lat": 58.4122,
        "lon": 15.6258,
        "timezone": "Europe/Stockholm",
        "isp": "Opera Browser VPN",
        "org": "Opera Software LLC",
        "as": "AS205016 HERN Labs AB",
        "query": "77.111.247.186",
        "response_time": 0.28801727294921875
    },
    "http://177.54.147.174:3128": {
        "status": "success",
        "country": "Brazil",
        "countryCode": "BR",
        "region": "SP",
        "regionName": "S\u00e3o Paulo",
        "city": "S\u00e3o Paulo",
        "zip": "01323",
        "lat": -23.5475,
        "lon": -46.6361,
        "timezone": "America/Sao_Paulo",
        "isp": "Maxihost LTDA",
        "org": "Latitude.sh",
        "as": "AS262287 Latitude.sh LTDA",
        "query": "177.54.147.173",
        "response_time": 0.41180992126464844
    },
    "http://209.14.85.38:8888": {
        "status": "success",
        "country": "Brazil",
        "countryCode": "BR",
        "region": "RJ",
        "regionName": "Rio de Janeiro",
        "city": "Rio de Janeiro",
        "zip": "22790",
        "lat": -22.9072,
        "lon": -43.1883,
        "timezone": "America/Sao_Paulo",
        "isp": "X99 INTERNET LTDA.",
        "org": "AGIS",
        "as": "AS272786 X99 INTERNET",
        "query": "209.14.85.38",
        "response_time": 0.5151705741882324
    },
    "http://177.54.147.206:3128": {
        "status": "success",
        "country": "Brazil",
        "countryCode": "BR",
        "region": "SP",
        "regionName": "S\u00e3o Paulo",
        "city": "S\u00e3o Paulo",
        "zip": "01323",
        "lat": -23.5475,
        "lon": -46.6361,
        "timezone": "America/Sao_Paulo",
        "isp": "Maxihost LTDA",
        "org": "Latitude.sh",
        "as": "AS262287 Latitude.sh LTDA",
        "query": "177.54.147.173",
        "response_time": 0.4637906551361084
    },
    "http://31.40.248.2:8080": {
        "status": "success",
        "country": "Russia",
        "countryCode": "RU",
        "region": "MOW",
        "regionName": "Moscow",
        "city": "Moscow",
        "zip": "144700",
        "lat": 55.7558,
        "lon": 37.6173,
        "timezone": "Europe/Moscow",
        "isp": "\"Cloud Technologies\" LLC trading as Cloud.ru",
        "org": "Cloud.ru",
        "as": "AS208677 \"Cloud Technologies\" LLC trading as Cloud.ru",
        "query": "31.40.248.2",
        "response_time": 0.5102701187133789
    },
    "http://200.174.198.86:8888": {
        "status": "success",
        "country": "Brazil",
        "countryCode": "BR",
        "region": "RJ",
        "regionName": "Rio de Janeiro",
        "city": "Rio de Janeiro",
        "zip": "20000-000",
        "lat": -22.9068,
        "lon": -43.1729,
        "timezone": "America/Sao_Paulo",
        "isp": "Claro S.A",
        "org": "EMPRESA BRASILEIRA DE TELECOMUNICA\u00c7\u00d5ES SA-EMBRATEL",
        "as": "AS4230 CLARO S.A.",
        "query": "200.174.198.250",
        "response_time": 0.5218417644500732
    },
    "http://141.95.1.186:3128": {
        "status": "success",
        "country": "Germany",
        "countryCode": "DE",
        "region": "HE",
        "regionName": "Hesse",
        "city": "Limburg an der Lahn",
        "zip": "65550",
        "lat": 50.3986,
        "lon": 8.07958,
        "timezone": "Europe/Berlin",
        "isp": "OVH SAS",
        "org": "OVH GmbH",
        "as": "AS16276 OVH SAS",
        "query": "141.95.1.186",
        "response_time": 0.5806958675384521
    },
    "http://54.37.207.54:3128": {
        "status": "success",
        "country": "Germany",
        "countryCode": "DE",
        "region": "HE",
        "regionName": "Hesse",
        "city": "Limburg an der Lahn",
        "zip": "65550",
        "lat": 50.3986,
        "lon": 8.07958,
        "timezone": "Europe/Berlin",
        "isp": "OVH SAS",
        "org": "OVH GmbH",
        "as": "AS16276 OVH SAS",
        "query": "141.95.1.186",
        "response_time": 0.6541669368743896
    },
    "http://180.210.89.215:3128": {
        "status": "success",
        "country": "South Korea",
        "countryCode": "KR",
        "region": "41",
        "regionName": "Gyeonggi-do",
        "city": "Seongnam-si",
        "zip": "13606",
        "lat": 37.3783,
        "lon": 127.102,
        "timezone": "Asia/Seoul",
        "isp": "NHNCLOUD",
        "org": "",
        "as": "AS45974 NHNCLOUD",
        "query": "180.210.91.8",
        "response_time": 0.8187870979309082
    },
    "http://113.160.133.32:8080": {
        "status": "success",
        "country": "Vietnam",
        "countryCode": "VN",
        "region": "HN",
        "regionName": "Hanoi",
        "city": "Hanoi",
        "zip": "100000",
        "lat": 21.0184,
        "lon": 105.8461,
        "timezone": "Asia/Bangkok",
        "isp": "VietNam Post and Telecom Corporation",
        "org": "Vietnam Posts and Telecommunications Group",
        "as": "AS45899 VNPT Corp",
        "query": "113.160.133.32",
        "response_time": 0.8550689220428467
    },
    "http://49.0.91.7:8080": {
        "status": "success",
        "country": "Thailand",
        "countryCode": "TH",
        "region": "12",
        "regionName": "Nonthaburi",
        "city": "Nonthaburi",
        "zip": "11000",
        "lat": 13.8862,
        "lon": 100.4385,
        "timezone": "Asia/Bangkok",
        "isp": "AIS-Fibre",
        "org": "",
        "as": "AS133481 AIS Fibre",
        "query": "49.0.91.7",
        "response_time": 0.8871748447418213
    },
    "http://27.76.183.228:10003": {
        "status": "success",
        "country": "Vietnam",
        "countryCode": "VN",
        "region": "HN",
        "regionName": "Hanoi",
        "city": "Hanoi",
        "zip": "100000",
        "lat": 21.0184,
        "lon": 105.8461,
        "timezone": "Asia/Bangkok",
        "isp": "Newass2011xDSLHN",
        "org": "",
        "as": "AS7552 Viettel Group",
        "query": "27.73.108.82",
        "response_time": 0.96055006980896
    },
    "http://217.15.166.95:80": {
        "status": "success",
        "country": "Singapore",
        "countryCode": "SG",
        "region": "03",
        "regionName": "North West",
        "city": "Singapore",
        "zip": "858877",
        "lat": 1.35208,
        "lon": 103.82,
        "timezone": "Asia/Singapore",
        "isp": "Contabo Asia Private Limited",
        "org": "Contabo GmbH",
        "as": "AS141995 Contabo Asia Private Limited",
        "query": "217.15.166.95",
        "response_time": 0.894049882888794
    },
    "http://140.238.24.231:1080": {
        "status": "success",
        "country": "South Korea",
        "countryCode": "KR",
        "region": "11",
        "regionName": "Seoul",
        "city": "Seoul",
        "zip": "02878",
        "lat": 37.5985,
        "lon": 126.9783,
        "timezone": "Asia/Seoul",
        "isp": "Oracle Corporation",
        "org": "Oracle Cloud Infrastructure (ap-seoul-1)",
        "as": "AS31898 Oracle Corporation",
        "query": "140.238.24.231",
        "response_time": 0.9534177780151367
    },
    "http://218.78.55.172:8089": {
        "status": "success",
        "country": "China",
        "countryCode": "CN",
        "region": "SH",
        "regionName": "Shanghai",
        "city": "Shanghai",
        "zip": "",
        "lat": 31.2222,
        "lon": 121.4581,
        "timezone": "Asia/Shanghai",
        "isp": "China Telecom (Group)",
        "org": "Chinanet SH",
        "as": "AS4812 China Telecom (Group)",
        "query": "218.78.55.172",
        "response_time": 1.221552848815918
    },
    "http://72.10.160.172:19523": {
        "status": "success",
        "country": "Philippines",
        "countryCode": "PH",
        "region": "00",
        "regionName": "Metro Manila",
        "city": "Manila",
        "zip": "1003",
        "lat": 14.5971,
        "lon": 120.9798,
        "timezone": "Asia/Manila",
        "isp": "Philippine Long Distance Telephone Co.",
        "org": "Philippine Long Distance Telephone Company",
        "as": "AS9299 Philippine Long Distance Telephone Company",
        "query": "112.206.246.199",
        "response_time": 1.181774616241455
    },
    "http://189.240.60.162:9090": {
        "status": "success",
        "country": "Mexico",
        "countryCode": "MX",
        "region": "CMX",
        "regionName": "Mexico City",
        "city": "Coyoac\u00e1n",
        "zip": "04330",
        "lat": 19.3406,
        "lon": -99.1521,
        "timezone": "America/Mexico_City",
        "isp": "Uninet S.A. de C.V.",
        "org": "UNINET",
        "as": "AS8151 UNINET",
        "query": "189.240.60.168",
        "response_time": 1.3074488639831543
    },
    "http://67.43.227.226:3803": {
        "status": "success",
        "country": "United States",
        "countryCode": "US",
        "region": "MS",
        "regionName": "Mississippi",
        "city": "Bruce",
        "zip": "38915",
        "lat": 34.002,
        "lon": -89.3539,
        "timezone": "America/Chicago",
        "isp": "neXband Communications. Inc.",
        "org": "neXband Communications. Inc",
        "as": "AS53726 neXband Communications. Inc.",
        "query": "173.241.78.43",
        "response_time": 1.7452640533447266
    },
    "http://72.10.160.92:5889": {
        "status": "success",
        "country": "United States",
        "countryCode": "US",
        "region": "FL",
        "regionName": "Florida",
        "city": "Sunrise",
        "zip": "33304",
        "lat": 26.1323,
        "lon": -80.1162,
        "timezone": "America/New_York",
        "isp": "Blue Stream",
        "org": "",
        "as": "AS30404 Blue Stream",
        "query": "167.248.214.163",
        "response_time": 1.8635108470916748
    },
    "http://35.92.100.187:3128": {
        "status": "success",
        "country": "United States",
        "countryCode": "US",
        "region": "OR",
        "regionName": "Oregon",
        "city": "Portland",
        "zip": "97207",
        "lat": 45.5235,
        "lon": -122.676,
        "timezone": "America/Los_Angeles",
        "isp": "Amazon.com, Inc.",
        "org": "AWS EC2 (us-west-2)",
        "as": "AS16509 Amazon.com, Inc.",
        "query": "35.92.100.187",
        "response_time": 2.2870984077453613
    },
    "http://67.43.227.226:5483": {
        "status": "success",
        "country": "India",
        "countryCode": "IN",
        "region": "HR",
        "regionName": "Haryana",
        "city": "Karn\u0101l",
        "zip": "132001",
        "lat": 29.6923,
        "lon": 76.986,
        "timezone": "Asia/Kolkata",
        "isp": "RELIANCEJIO",
        "org": "Reliance Jio Infocomm Limited",
        "as": "AS55836 Reliance Jio Infocomm Limited",
        "query": "152.59.94.142",
        "response_time": 2.3140101432800293
    },
    "http://154.6.189.35:3128": {
        "status": "success",
        "country": "Germany",
        "countryCode": "DE",
        "region": "HE",
        "regionName": "Hesse",
        "city": "Frankfurt am Main",
        "zip": "60313",
        "lat": 50.1109,
        "lon": 8.68213,
        "timezone": "Europe/Berlin",
        "isp": "haoxiangyun",
        "org": "LogicWeb Inc",
        "as": "AS141718 haoxiangyun",
        "query": "154.6.189.35",
        "response_time": 0.3093836307525635
    },
    "socks4://62.182.83.214:1080": {
        "status": "success",
        "country": "Ukraine",
        "countryCode": "UA",
        "region": "30",
        "regionName": "Kyiv City",
        "city": "Kyiv",
        "zip": "03027",
        "lat": 50.458,
        "lon": 30.5303,
        "timezone": "Europe/Kyiv",
        "isp": "PE \"Khersontelecom\"",
        "org": "PE \"Khersontelecom\"",
        "as": "AS30860 Virtual Systems LLC",
        "query": "62.182.83.214",
        "response_time": 0.6423132419586182
    },
    "socks4://181.143.61.124:4153": {
        "status": "success",
        "country": "Colombia",
        "countryCode": "CO",
        "region": "ANT",
        "regionName": "Antioquia",
        "city": "Medell\u00edn",
        "zip": "050031",
        "lat": 6.2529,
        "lon": -75.5646,
        "timezone": "America/Bogota",
        "isp": "EPM Telecomunicaciones S.A. E.S.P.",
        "org": "EPM Telecomunicaciones S.A. E.S.P",
        "as": "AS13489 UNE EPM TELECOMUNICACIONES S.A.",
        "query": "181.143.61.124",
        "response_time": 0.6890945434570312
    },
    "socks4://46.209.115.130:2022": {
        "status": "success",
        "country": "Iran",
        "countryCode": "IR",
        "region": "23",
        "regionName": "Tehran",
        "city": "Tehran",
        "zip": "",
        "lat": 35.6824,
        "lon": 51.4158,
        "timezone": "Asia/Tehran",
        "isp": "Respina Networks & Beyond PJSC",
        "org": "Respina",
        "as": "AS42337 Respina Networks & Beyond PJSC",
        "query": "46.209.115.130",
        "response_time": 0.7621455192565918
    },
    "socks4://200.41.182.243:4145": {
        "status": "success",
        "country": "Argentina",
        "countryCode": "AR",
        "region": "C",
        "regionName": "Buenos Aires F.D.",
        "city": "Buenos Aires",
        "zip": "1871",
        "lat": -34.6142,
        "lon": -58.3811,
        "timezone": "America/Argentina/Buenos_Aires",
        "isp": "Telefonica de Argentina",
        "org": "Telefonica de Argentina",
        "as": "AS10834 Telefonica de Argentina",
        "query": "200.41.182.243",
        "response_time": 0.7783787250518799
    },
    "socks4://37.152.172.233:4153": {
        "status": "success",
        "country": "Iran",
        "countryCode": "IR",
        "region": "19",
        "regionName": "Zanjan",
        "city": "Zanjan",
        "zip": "",
        "lat": 36.6764,
        "lon": 48.4963,
        "timezone": "Asia/Tehran",
        "isp": "Rahanet Zanjan Co. (Private Joint-Stock)",
        "org": "Rahanet Zanjan Co.",
        "as": "AS198569 Rahanet Zanjan Co. (Private Joint-Stock)",
        "query": "37.152.172.233",
        "response_time": 0.8523349761962891
    },
    "socks4://161.35.143.152:1080": {
        "status": "success",
        "country": "United States",
        "countryCode": "US",
        "region": "NJ",
        "regionName": "New Jersey",
        "city": "Clifton",
        "zip": "07014",
        "lat": 40.8364,
        "lon": -74.1403,
        "timezone": "America/New_York",
        "isp": "DigitalOcean, LLC",
        "org": "DigitalOcean, LLC",
        "as": "AS14061 DigitalOcean, LLC",
        "query": "161.35.143.152",
        "response_time": 0.8386638164520264
    },
    "http://51.89.25.53:3128": {
        "status": "success",
        "country": "Germany",
        "countryCode": "DE",
        "region": "HE",
        "regionName": "Hesse",
        "city": "Limburg an der Lahn",
        "zip": "65550",
        "lat": 50.3986,
        "lon": 8.07958,
        "timezone": "Europe/Berlin",
        "isp": "OVH SAS",
        "org": "OVH GmbH",
        "as": "AS16276 OVH SAS",
        "query": "141.95.1.186",
        "response_time": 1.0225272178649902
    },
    "socks4://27.75.145.101:1080": {
        "status": "success",
        "country": "Vietnam",
        "countryCode": "VN",
        "region": "SG",
        "regionName": "Ho Chi Minh",
        "city": "Ho Chi Minh City",
        "zip": "700000",
        "lat": 10.822,
        "lon": 106.6257,
        "timezone": "Asia/Ho_Chi_Minh",
        "isp": "Viettel Group",
        "org": "VIETTEL",
        "as": "AS7552 Viettel Group",
        "query": "27.75.145.101",
        "response_time": 1.0770771503448486
    },
    "socks5://140.238.24.231:1080": {
        "status": "success",
        "country": "South Korea",
        "countryCode": "KR",
        "region": "11",
        "regionName": "Seoul",
        "city": "Seoul",
        "zip": "02878",
        "lat": 37.5985,
        "lon": 126.9783,
        "timezone": "Asia/Seoul",
        "isp": "Oracle Corporation",
        "org": "Oracle Cloud Infrastructure (ap-seoul-1)",
        "as": "AS31898 Oracle Corporation",
        "query": "140.238.24.231",
        "response_time": 1.2952330112457275
    },
    "http://51.75.86.68:3128": {
        "status": "success",
        "country": "Germany",
        "countryCode": "DE",
        "region": "HE",
        "regionName": "Hesse",
        "city": "Limburg an der Lahn",
        "zip": "65550",
        "lat": 50.3986,
        "lon": 8.07958,
        "timezone": "Europe/Berlin",
        "isp": "OVH SAS",
        "org": "OVH GmbH",
        "as": "AS16276 OVH SAS",
        "query": "141.95.1.186",
        "response_time": 1.5759105682373047
    },
    "socks4://195.29.122.132:60606": {
        "status": "success",
        "country": "Croatia",
        "countryCode": "HR",
        "region": "19",
        "regionName": "Dubrovnik-Neretva County",
        "city": "Cavtat",
        "zip": "20210",
        "lat": 42.5818,
        "lon": 18.2141,
        "timezone": "Europe/Zagreb",
        "isp": "Hrvatski Telekom d.d.",
        "org": "Marina Dalmacija",
        "as": "AS5391 Hrvatski Telekom d.d.",
        "query": "195.29.122.132",
        "response_time": 1.7033450603485107
    },
    "socks4://109.238.12.156:3005": {
        "status": "success",
        "country": "France",
        "countryCode": "FR",
        "region": "IDF",
        "regionName": "\u00cele-de-France",
        "city": "Boulogne-Billancourt",
        "zip": "92100",
        "lat": 48.8356,
        "lon": 2.23832,
        "timezone": "Europe/Paris",
        "isp": "Ikoula Net SAS",
        "org": "",
        "as": "AS21409 Ikoula Net SAS",
        "query": "109.238.12.156",
        "response_time": 1.657487392425537
    },
    "socks4://103.207.96.90:41238": {
        "status": "success",
        "country": "Indonesia",
        "countryCode": "ID",
        "region": "BA",
        "regionName": "Bali",
        "city": "Banjar Pemangkalan",
        "zip": "",
        "lat": -8.6414,
        "lon": 115.19,
        "timezone": "Asia/Makassar",
        "isp": "JKSNET",
        "org": "",
        "as": "AS134643 PT Jaya Kartha Solusindo",
        "query": "103.207.96.90",
        "response_time": 2.1319048404693604
    },
    "http://209.14.85.38:3128": {
        "status": "success",
        "country": "Brazil",
        "countryCode": "BR",
        "region": "RJ",
        "regionName": "Rio de Janeiro",
        "city": "Rio de Janeiro",
        "zip": "22790",
        "lat": -22.9072,
        "lon": -43.1883,
        "timezone": "America/Sao_Paulo",
        "isp": "X99 INTERNET LTDA.",
        "org": "AGIS",
        "as": "AS272786 X99 INTERNET",
        "query": "209.14.85.38",
        "response_time": 2.328740358352661
    },
    "socks5://118.70.151.55:1080": {
        "status": "success",
        "country": "Vietnam",
        "countryCode": "VN",
        "region": "HN",
        "regionName": "Hanoi",
        "city": "Hanoi",
        "zip": "100000",
        "lat": 21.0184,
        "lon": 105.8461,
        "timezone": "Asia/Bangkok",
        "isp": "FPT Telecom Company",
        "org": "Vietnam Internet Network Information Center",
        "as": "AS18403 FPT Telecom Company",
        "query": "118.70.151.55",
        "response_time": 2.4418656826019287
    },
    "http://67.43.227.226:14203": {
        "status": "success",
        "country": "United States",
        "countryCode": "US",
        "region": "OR",
        "regionName": "Oregon",
        "city": "Dallas",
        "zip": "97338",
        "lat": 44.9241,
        "lon": -123.3248,
        "timezone": "America/Los_Angeles",
        "isp": "MINET",
        "org": "LS Networks",
        "as": "AS397422 MINET",
        "query": "209.237.85.26",
        "response_time": 2.645305633544922
    },
    "http://67.43.236.21:3861": {
        "status": "success",
        "country": "Brazil",
        "countryCode": "BR",
        "region": "ES",
        "regionName": "Esp\u00edrito Santo",
        "city": "Vit\u00f3ria",
        "zip": "",
        "lat": -20.3163,
        "lon": -40.3457,
        "timezone": "America/Sao_Paulo",
        "isp": "TELEF\u00d4NICA BRASIL S.A",
        "org": "Global Village Telecom",
        "as": "AS18881 TELEF\u00d4NICA BRASIL S.A",
        "query": "177.158.255.84",
        "response_time": 2.6769297122955322
    },
    "http://58.59.61.200:10991": {
        "status": "success",
        "country": "China",
        "countryCode": "CN",
        "region": "SD",
        "regionName": "Shandong",
        "city": "Jinan",
        "zip": "250000",
        "lat": 36.6683,
        "lon": 117.021,
        "timezone": "Asia/Shanghai",
        "isp": "Chinanet",
        "org": "Chinanet SD",
        "as": "AS4134 CHINANET-BACKBONE",
        "query": "58.59.61.200",
        "response_time": 2.7515687942504883
    },
    "http://115.127.36.190:222": {
        "status": "success",
        "country": "Bangladesh",
        "countryCode": "BD",
        "region": "C",
        "regionName": "Dhaka Division",
        "city": "Dhaka",
        "zip": "1000",
        "lat": 23.7278,
        "lon": 90.4135,
        "timezone": "Asia/Dhaka",
        "isp": "BRACNet Limited",
        "org": "BRACNet Limited",
        "as": "AS24342 BRACNet Limited",
        "query": "115.127.36.190",
        "response_time": 2.865788459777832
    },
    "socks4://203.173.94.2:60606": {
        "status": "success",
        "country": "Indonesia",
        "countryCode": "ID",
        "region": "JK",
        "regionName": "Jakarta",
        "city": "Jakarta",
        "zip": "",
        "lat": -6.23865,
        "lon": 106.824,
        "timezone": "Asia/Jakarta",
        "isp": "Dtpnet NAP",
        "org": "Dtpnet",
        "as": "AS18059 DTPNET NAP",
        "query": "203.173.94.2",
        "response_time": 3.0207324028015137
    },
    "socks4://110.77.149.227:4153": {
        "status": "success",
        "country": "Thailand",
        "countryCode": "TH",
        "region": "20",
        "regionName": "Chon Buri",
        "city": "Ban Talat Bueng",
        "zip": "20170",
        "lat": 13.0715,
        "lon": 101.003,
        "timezone": "Asia/Bangkok",
        "isp": "CAT Telecom Public Company Limited",
        "org": "CAT BB",
        "as": "AS131090 CAT TELECOM Public Company Ltd,CAT",
        "query": "110.77.149.227",
        "response_time": 3.190051555633545
    },
    "socks4://41.223.108.13:1080": {
        "status": "success",
        "country": "Somalia",
        "countryCode": "SO",
        "region": "BR",
        "regionName": "Bari",
        "city": "Bosaso",
        "zip": "",
        "lat": 11.2891,
        "lon": 49.1763,
        "timezone": "Africa/Mogadishu",
        "isp": "Golis Telecom Somalia",
        "org": "ISP",
        "as": "AS328250 Golis Telecom Somalia",
        "query": "41.223.108.13",
        "response_time": 3.4327993392944336
    }
}